[
  { "id": "h_01", "name": "Hotel Grand Germain", "stars": 4, "price_per_night": 250, "arrondissement": 6, "coords": {"lat": 48.853, "lng": 2.333}, "rating": 4.5, "reviews_count": 1204, "amenities": ["WiFi", "Breakfast", "AC"], "style": "Classic" },
  { "id": "h_02", "name": "Hotel Petit Michel", "stars": 3, "price_per_night": 140, "arrondissement": 5, "coords": {"lat": 48.848, "lng": 2.344}, "rating": 4.1, "reviews_count": 845, "amenities": ["WiFi", "AC"], "style": "Budget" },
  { "id": "h_03", "name": "Hotel Luxe Etoile", "stars": 5, "price_per_night": 650, "arrondissement": 8, "coords": {"lat": 48.873, "lng": 2.295}, "rating": 4.8, "reviews_count": 412, "amenities": ["WiFi", "Pool", "Gym", "Spa"], "style": "Modern" },
  { "id": "h_04", "name": "Hotel Saint Louvre", "stars": 4, "price_per_night": 320, "arrondissement": 1, "coords": {"lat": 48.862, "lng": 2.336}, "rating": 4.6, "reviews_count": 2100, "amenities": ["WiFi", "Breakfast", "Bar"], "style": "Boutique" },
  { "id": "h_05", "name": "Hotel Royal Bastille", "stars": 3, "price_per_night": 160, "arrondissement": 11, "coords": {"lat": 48.853, "lng": 2.369}, "rating": 4.0, "reviews_count": 670, "amenities": ["WiFi"], "style": "Classic" },
  { "id": "h_06", "name": "Boutique Marais", "stars": 4, "price_per_night": 280, "arrondissement": 4, "coords": {"lat": 48.858, "lng": 2.358}, "rating": 4.7, "reviews_count": 920, "amenities": ["WiFi", "AC", "Breakfast"], "style": "Boutique" },
  { "id": "h_07", "name": "Hotel Eiffel Seine", "stars": 4, "price_per_night": 290, "arrondissement": 15, "coords": {"lat": 48.851, "lng": 2.288}, "rating": 4.4, "reviews_count": 1502, "amenities": ["WiFi", "Gym", "AC"], "style": "Modern" },
  { "id": "h_08", "name": "Montmartre Heights", "stars": 3, "price_per_night": 135, "arrondissement": 18, "coords": {"lat": 48.886, "lng": 2.343}, "rating": 4.2, "reviews_count": 1105, "amenities": ["WiFi", "Breakfast"], "style": "Budget" },
  { "id": "h_09", "name": "Palace de l'Opera", "stars": 5, "price_per_night": 720, "arrondissement": 9, "coords": {"lat": 48.871, "lng": 2.332}, "rating": 4.9, "reviews_count": 890, "amenities": ["WiFi", "Pool", "Spa", "Breakfast"], "style": "Classic" },
  { "id": "h_10", "name": "Quartier Latin Suites", "stars": 4, "price_per_night": 210, "arrondissement": 5, "coords": {"lat": 48.846, "lng": 2.346}, "rating": 4.3, "reviews_count": 654, "amenities": ["WiFi", "Kitchenette", "AC"], "style": "Modern" },
  { "id": "h_11", "name": "Champs-Elysees Plaza", "stars": 5, "price_per_night": 580, "arrondissement": 8, "coords": {"lat": 48.871, "lng": 2.302}, "rating": 4.6, "reviews_count": 1340, "amenities": ["WiFi", "Gym", "Valet"], "style": "Boutique" },
  { "id": "h_12", "name": "Canal St Martin Inn", "stars": 3, "price_per_night": 125, "arrondissement": 10, "coords": {"lat": 48.872, "lng": 2.365}, "rating": 4.0, "reviews_count": 432, "amenities": ["WiFi"], "style": "Budget" },
  { "id": "h_13", "name": "Republique Central", "stars": 3, "price_per_night": 145, "arrondissement": 3, "coords": {"lat": 48.867, "lng": 2.363}, "rating": 4.1, "reviews_count": 789, "amenities": ["WiFi", "Breakfast"], "style": "Modern" },
  { "id": "h_14", "name": "Invalides View", "stars": 4, "price_per_night": 310, "arrondissement": 7, "coords": {"lat": 48.855, "lng": 2.312}, "rating": 4.5, "reviews_count": 512, "amenities": ["WiFi", "AC", "Terrace"], "style": "Classic" },
  { "id": "h_15", "name": "Gare du Nord Transit", "stars": 2, "price_per_night": 95, "arrondissement": 10, "coords": {"lat": 48.880, "lng": 2.355}, "rating": 3.6, "reviews_count": 2100, "amenities": ["WiFi"], "style": "Budget" },
  { "id": "h_16", "name": "Sorbonne Scholars", "stars": 3, "price_per_night": 155, "arrondissement": 5, "coords": {"lat": 48.848, "lng": 2.343}, "rating": 4.4, "reviews_count": 890, "amenities": ["WiFi", "Library"], "style": "Boutique" },
  { "id": "h_17", "name": "Rivoli Riverside", "stars": 4, "price_per_night": 275, "arrondissement": 1, "coords": {"lat": 48.859, "lng": 2.340}, "rating": 4.7, "reviews_count": 1650, "amenities": ["WiFi", "AC", "Bar"], "style": "Modern" },
  { "id": "h_18", "name": "Belleville Artist Lofts", "stars": 3, "price_per_night": 110, "arrondissement": 20, "coords": {"lat": 48.873, "lng": 2.384}, "rating": 4.3, "reviews_count": 320, "amenities": ["WiFi", "Kitchen"], "style": "Boutique" },
  { "id": "h_19", "name": "Montparnasse Tower Hotel", "stars": 4, "price_per_night": 240, "arrondissement": 14, "coords": {"lat": 48.842, "lng": 2.321}, "rating": 4.2, "reviews_count": 2300, "amenities": ["WiFi", "Gym", "Breakfast"], "style": "Modern" },
  { "id": "h_20", "name": "Le Vendome Elegance", "stars": 5, "price_per_night": 850, "arrondissement": 1, "coords": {"lat": 48.868, "lng": 2.329}, "rating": 4.9, "reviews_count": 560, "amenities": ["WiFi", "Spa", "Pool", "Valet"], "style": "Classic" },
  { "id": "h_21", "name": "Nation Plaza", "stars": 3, "price_per_night": 130, "arrondissement": 11, "coords": {"lat": 48.848, "lng": 2.395}, "rating": 3.9, "reviews_count": 670, "amenities": ["WiFi", "AC"], "style": "Budget" },
  { "id": "h_22", "name": "Villette Parkside", "stars": 3, "price_per_night": 120, "arrondissement": 19, "coords": {"lat": 48.892, "lng": 2.388}, "rating": 4.1, "reviews_count": 450, "amenities": ["WiFi", "Breakfast"], "style": "Modern" },
  { "id": "h_23", "name": "Trocadero Views", "stars": 4, "price_per_night": 350, "arrondissement": 16, "coords": {"lat": 48.863, "lng": 2.287}, "rating": 4.6, "reviews_count": 1120, "amenities": ["WiFi", "AC", "Gym"], "style": "Classic" },
  { "id": "h_24", "name": "Luxembourg Gardens Retreat", "stars": 4, "price_per_night": 290, "arrondissement": 6, "coords": {"lat": 48.846, "lng": 2.337}, "rating": 4.8, "reviews_count": 890, "amenities": ["WiFi", "Terrace", "Breakfast"], "style": "Boutique" },
  { "id": "h_25", "name": "Bercy Village Hotel", "stars": 3, "price_per_night": 140, "arrondissement": 12, "coords": {"lat": 48.833, "lng": 2.386}, "rating": 4.2, "reviews_count": 940, "amenities": ["WiFi", "AC"], "style": "Modern" },
  { "id": "h_26", "name": "Batignolles Cozy", "stars": 3, "price_per_night": 150, "arrondissement": 17, "coords": {"lat": 48.883, "lng": 2.316}, "rating": 4.4, "reviews_count": 520, "amenities": ["WiFi", "Breakfast"], "style": "Boutique" },
  { "id": "h_27", "name": "Pantheon Heritage", "stars": 4, "price_per_night": 260, "arrondissement": 5, "coords": {"lat": 48.846, "lng": 2.344}, "rating": 4.5, "reviews_count": 780, "amenities": ["WiFi", "Library"], "style": "Classic" },
  { "id": "h_28", "name": "Odeon Crossroads", "stars": 3, "price_per_night": 175, "arrondissement": 6, "coords": {"lat": 48.852, "lng": 2.338}, "rating": 4.3, "reviews_count": 1050, "amenities": ["WiFi", "Bar"], "style": "Budget" },
  { "id": "h_29", "name": "Garnier Opulence", "stars": 5, "price_per_night": 600, "arrondissement": 9, "coords": {"lat": 48.871, "lng": 2.331}, "rating": 4.7, "reviews_count": 630, "amenities": ["WiFi", "Spa", "Gym", "Restaurant"], "style": "Classic" },
  { "id": "h_30", "name": "Pere Lachaise Rest", "stars": 2, "price_per_night": 85, "arrondissement": 20, "coords": {"lat": 48.861, "lng": 2.393}, "rating": 3.7, "reviews_count": 310, "amenities": ["WiFi"], "style": "Budget" }
]